[{"id":"mitzpe-ramon-nov-2025","title":"Mitzpe Ramon Nov 2025","date":"Nov 2025","description":"","lat":30.60778895382676,"lng":34.80161243829655,"folderId":"1E7zXJwrGlaOn1NjdCHVIKGSpVXrTm8VV","cover":"https://lh3.googleusercontent.com/d/1hIRophbiSwukpd0w3j8_dY-WcSdbPveZ=s2000"},{"id":"eilat-aug-2024","title":"Eilat Aug 2024","date":"Aug 2024","description":"","lat":29.558661327327588,"lng":34.94855775937055,"folderId":"1jRRkQhPVDYOqKvI5wDhld9lTdqtgRW1B","cover":"https://lh3.googleusercontent.com/d/18HIWqrAzAdeZ-OhL5VZgO5EGY0_xEjWp=s2000"},{"id":"achziv-oct-2025","title":"Achziv Oct 2025","date":"Oct 2025","description":"","lat":33.048603798806745,"lng":35.10215553920914,"folderId":"1kp2acJHxZv_GXoISxSEN9Ka-3iG0Pzw2","cover":"https://lh3.googleusercontent.com/d/1DlSlppq2-wk0alvRfrIwyD_77Of3mXrg=s2000"},{"id":"rosh-hanikra-oct-2025","title":"Rosh Hanikra Oct 2025","date":"Oct 2025","description":"","lat":33.093694583603465,"lng":35.10426841222383,"folderId":"13RchA5kF6nvmXPyaEzhSnCbRV2nfgLMr","cover":"https://lh3.googleusercontent.com/d/1wIr5bzek72MpMxf_p2c4FAcTOcx04VqS=s2000"},{"id":"philip-50-bday","title":"Philip 50 bday","date":"","description":"","lat":33.002190906045726,"lng":35.29648299687875,"folderId":"198gZ92b4lW6dmKYa48jQ2_agTgADjVYn","cover":"https://lh3.googleusercontent.com/d/1mIW0gik6C3eLzuN0kKgnguf7ru4X8OrL=s2000"},{"id":"limassol-may-2025","title":"Limassol May 2025","date":"May 2025","description":"","lat":34.679826197448506,"lng":33.036981550412406,"folderId":"1M-tzDCN8g8NUwIjkUW0tx6_PMRMyPC8D","cover":"https://lh3.googleusercontent.com/d/1dTq91D9PAk4M0DEP4NuHNIV6PfuMQ3OC=s2000"},{"id":"jerusalem-oct-2025","title":"Jerusalem Oct 2025","date":"Oct 2025","description":"","lat":31.776892166399787,"lng":35.23448703873767,"folderId":"1TPNOUxZ5XjuMcwQc-d6C_HWCFc4ZNfF-","cover":"https://lh3.googleusercontent.com/d/115Va1gEgwLbddlJ7r-cOXDoUK3yAB3dD=s2000"},{"id":"habonim-oct-2025","title":"HaBonim Oct 2025","date":"Oct 2025","description":"","lat":32.64399014323288,"lng":34.9237028091601,"folderId":"1T4jt8St478DiKLwx4UTrWp8vcFFYpYoK","cover":"https://lh3.googleusercontent.com/d/1ezOpVnXWFUgYAZ4xwxNwZHdcVnUyzQ0B=s2000"},{"id":"ein-gedi-sep-2025","title":"Ein Gedi Sep 2025","date":"Sep 2025","description":"","lat":31.4627493683604,"lng":35.39262432234434,"folderId":"15qNFTyBiV3jMpoFCyLMnz2e0RnAMUKOJ","cover":"https://lh3.googleusercontent.com/d/1bjqhaKJ7I1wF6Uu-E-gIf3W1bYpssIMr=s2000"},{"id":"eshtaol-forest-oct-2025","title":"Eshtaol forest Oct 2025","date":"Oct 2025","description":"","lat":31.80020581448586,"lng":34.98381826757452,"folderId":"1Y6Z4BxFdaL0So0Su_2NO1I0sPD5LDCCk","cover":"https://lh3.googleusercontent.com/d/1qpMYTGQdOS8NIHRsL7hJLjkbFdchDd_c=s2000"}]